[
    {
        "id": 3665542,
        "value": 3665542,
        "name": "Zipaquirá",
        "label": "Zipaquirá",
        "text": "Zipaquirá",
        "country": "CO",
        "coord": {
            "lon": -74.004807,
            "lat": 5.02208
        }
    },
    {
        "id": 3665544,
        "value": 3665544,
        "name": "Zipacón",
        "label": "Zipacón",
        "text": "Zipacón",
        "country": "CO",
        "coord": {
            "lon": -74.380173,
            "lat": 4.75881
        }
    },
    {
        "id": 3665547,
        "value": 3665547,
        "name": "Zetaquira",
        "label": "Zetaquira",
        "text": "Zetaquira",
        "country": "CO",
        "coord": {
            "lon": -73.168961,
            "lat": 5.28215
        }
    },
    {
        "id": 3665559,
        "value": 3665559,
        "name": "Zarzal",
        "label": "Zarzal",
        "text": "Zarzal",
        "country": "CO",
        "coord": {
            "lon": -76.071503,
            "lat": 4.39462
        }
    },
    {
        "id": 3665566,
        "value": 3665566,
        "name": "Zaragoza",
        "label": "Zaragoza",
        "text": "Zaragoza",
        "country": "CO",
        "coord": {
            "lon": -74.869186,
            "lat": 7.48971
        }
    },
    {
        "id": 3665587,
        "value": 3665587,
        "name": "Zapatoca",
        "label": "Zapatoca",
        "text": "Zapatoca",
        "country": "CO",
        "coord": {
            "lon": -73.267677,
            "lat": 6.81532
        }
    },
    {
        "id": 3665616,
        "value": 3665616,
        "name": "Zambrano",
        "label": "Zambrano",
        "text": "Zambrano",
        "country": "CO",
        "coord": {
            "lon": -74.8153,
            "lat": 9.74724
        }
    },
    {
        "id": 3665626,
        "value": 3665626,
        "name": "Zacarías",
        "label": "Zacarías",
        "text": "Zacarías",
        "country": "CO",
        "coord": {
            "lon": -77.002769,
            "lat": 3.81584
        }
    },
    {
        "id": 3665657,
        "value": 3665657,
        "name": "Yumbo",
        "label": "Yumbo",
        "text": "Yumbo",
        "country": "CO",
        "coord": {
            "lon": -76.491463,
            "lat": 3.58234
        }
    },
    {
        "id": 3665678,
        "value": 3665678,
        "name": "Yotoco",
        "label": "Yotoco",
        "text": "Yotoco",
        "country": "CO",
        "coord": {
            "lon": -76.383636,
            "lat": 3.86048
        }
    },
    {
        "id": 3665688,
        "value": 3665688,
        "name": "Yopal",
        "label": "Yopal",
        "text": "Yopal",
        "country": "CO",
        "coord": {
            "lon": -72.395859,
            "lat": 5.33775
        }
    },
    {
        "id": 3665691,
        "value": 3665691,
        "name": "Yondó",
        "label": "Yondó",
        "text": "Yondó",
        "country": "CO",
        "coord": {
            "lon": -73.909721,
            "lat": 7.00621
        }
    },
    {
        "id": 3665693,
        "value": 3665693,
        "name": "Yolombó",
        "label": "Yolombó",
        "text": "Yolombó",
        "country": "CO",
        "coord": {
            "lon": -75.011398,
            "lat": 6.59841
        }
    },
    {
        "id": 3665741,
        "value": 3665741,
        "name": "Yarumal",
        "label": "Yarumal",
        "text": "Yarumal",
        "country": "CO",
        "coord": {
            "lon": -75.417381,
            "lat": 6.96321
        }
    },
    {
        "id": 3665792,
        "value": 3665792,
        "name": "Yalí",
        "label": "Yalí",
        "text": "Yalí",
        "country": "CO",
        "coord": {
            "lon": -74.834297,
            "lat": 6.67456
        }
    },
    {
        "id": 3665803,
        "value": 3665803,
        "name": "Yaguará",
        "label": "Yaguará",
        "text": "Yaguará",
        "country": "CO",
        "coord": {
            "lon": -75.517532,
            "lat": 2.66355
        }
    },
    {
        "id": 3665811,
        "value": 3665811,
        "name": "Yacuanquer",
        "label": "Yacuanquer",
        "text": "Yacuanquer",
        "country": "CO",
        "coord": {
            "lon": -77.401688,
            "lat": 1.11577
        }
    },
    {
        "id": 3665813,
        "value": 3665813,
        "name": "Yacopí",
        "label": "Yacopí",
        "text": "Yacopí",
        "country": "CO",
        "coord": {
            "lon": -74.338226,
            "lat": 5.45948
        }
    },
    {
        "id": 3665851,
        "value": 3665851,
        "name": "Viterbo",
        "label": "Viterbo",
        "text": "Viterbo",
        "country": "CO",
        "coord": {
            "lon": -75.87159,
            "lat": 5.06242
        }
    },
    {
        "id": 3665860,
        "value": 3665860,
        "name": "Vistahermosa",
        "label": "Vistahermosa",
        "text": "Vistahermosa",
        "country": "CO",
        "coord": {
            "lon": -73.751556,
            "lat": 3.12428
        }
    },
    {
        "id": 3665881,
        "value": 3665881,
        "name": "Viotá",
        "label": "Viotá",
        "text": "Viotá",
        "country": "CO",
        "coord": {
            "lon": -74.521568,
            "lat": 4.43713
        }
    },
    {
        "id": 3665895,
        "value": 3665895,
        "name": "Villeta",
        "label": "Villeta",
        "text": "Villeta",
        "country": "CO",
        "coord": {
            "lon": -74.47226,
            "lat": 5.00886
        }
    },
    {
        "id": 3665898,
        "value": 3665898,
        "name": "Villavieja",
        "label": "Villavieja",
        "text": "Villavieja",
        "country": "CO",
        "coord": {
            "lon": -75.218643,
            "lat": 3.22052
        }
    },
    {
        "id": 3665900,
        "value": 3665900,
        "name": "Villavicencio",
        "label": "Villavicencio",
        "text": "Villavicencio",
        "country": "CO",
        "coord": {
            "lon": -73.62664,
            "lat": 4.142
        }
    },
    {
        "id": 3665910,
        "value": 3665910,
        "name": "Villarrica",
        "label": "Villarrica",
        "text": "Villarrica",
        "country": "CO",
        "coord": {
            "lon": -74.600357,
            "lat": 3.93502
        }
    },
    {
        "id": 3665913,
        "value": 3665913,
        "name": "Villa del Rosario",
        "label": "Villa del Rosario",
        "text": "Villa del Rosario",
        "country": "CO",
        "coord": {
            "lon": -72.474167,
            "lat": 7.83389
        }
    },
    {
        "id": 3665918,
        "value": 3665918,
        "name": "Villa Rosa",
        "label": "Villa Rosa",
        "text": "Villa Rosa",
        "country": "CO",
        "coord": {
            "lon": -74.099998,
            "lat": 4.81667
        }
    },
    {
        "id": 3665924,
        "value": 3665924,
        "name": "Villapinzón",
        "label": "Villapinzón",
        "text": "Villapinzón",
        "country": "CO",
        "coord": {
            "lon": -73.594902,
            "lat": 5.21617
        }
    },
    {
        "id": 3665934,
        "value": 3665934,
        "name": "Villanueva",
        "label": "Villanueva",
        "text": "Villanueva",
        "country": "CO",
        "coord": {
            "lon": -72.980003,
            "lat": 10.60528
        }
    },
    {
        "id": 3665935,
        "value": 3665935,
        "name": "Villanueva",
        "label": "Villanueva",
        "text": "Villanueva",
        "country": "CO",
        "coord": {
            "lon": -75.273064,
            "lat": 10.44361
        }
    },
    {
        "id": 3665949,
        "value": 3665949,
        "name": "Villanueva",
        "label": "Villanueva",
        "text": "Villanueva",
        "country": "CO",
        "coord": {
            "lon": -73.174202,
            "lat": 6.67169
        }
    },
    {
        "id": 3665951,
        "value": 3665951,
        "name": "Villanueva",
        "label": "Villanueva",
        "text": "Villanueva",
        "country": "CO",
        "coord": {
            "lon": -71.966667,
            "lat": 5.28333
        }
    },
    {
        "id": 3665965,
        "value": 3665965,
        "name": "Villa Mejía",
        "label": "Villa Mejía",
        "text": "Villa Mejía",
        "country": "CO",
        "coord": {
            "lon": -74.150261,
            "lat": 4.64967
        }
    },
    {
        "id": 3665973,
        "value": 3665973,
        "name": "Villamaría",
        "label": "Villamaría",
        "text": "Villamaría",
        "country": "CO",
        "coord": {
            "lon": -75.514603,
            "lat": 5.04492
        }
    },
    {
        "id": 3665986,
        "value": 3665986,
        "name": "Villahermosa",
        "label": "Villahermosa",
        "text": "Villahermosa",
        "country": "CO",
        "coord": {
            "lon": -75.116074,
            "lat": 5.03067
        }
    },
    {
        "id": 3665987,
        "value": 3665987,
        "name": "Villa Hermosa",
        "label": "Villa Hermosa",
        "text": "Villa Hermosa",
        "country": "CO",
        "coord": {
            "lon": -74.48333,
            "lat": 4.76667
        }
    },
    {
        "id": 3665991,
        "value": 3665991,
        "name": "Villagómez",
        "label": "Villagómez",
        "text": "Villagómez",
        "country": "CO",
        "coord": {
            "lon": -74.196136,
            "lat": 5.27372
        }
    },
    {
        "id": 3665992,
        "value": 3665992,
        "name": "Villagarzón",
        "label": "Villagarzón",
        "text": "Villagarzón",
        "country": "CO",
        "coord": {
            "lon": -76.626671,
            "lat": 1.0375
        }
    },
    {
        "id": 3666003,
        "value": 3666003,
        "name": "Villa de Leyva",
        "label": "Villa de Leyva",
        "text": "Villa de Leyva",
        "country": "CO",
        "coord": {
            "lon": -73.566673,
            "lat": 5.645
        }
    },
    {
        "id": 3666025,
        "value": 3666025,
        "name": "Vijes",
        "label": "Vijes",
        "text": "Vijes",
        "country": "CO",
        "coord": {
            "lon": -76.442299,
            "lat": 3.69934
        }
    },
    {
        "id": 3666041,
        "value": 3666041,
        "name": "Vijagual",
        "label": "Vijagual",
        "text": "Vijagual",
        "country": "CO",
        "coord": {
            "lon": -76.716667,
            "lat": 7.81667
        }
    },
    {
        "id": 3666042,
        "value": 3666042,
        "name": "Vigía del Fuerte",
        "label": "Vigía del Fuerte",
        "text": "Vigía del Fuerte",
        "country": "CO",
        "coord": {
            "lon": -76.886276,
            "lat": 6.57891
        }
    },
    {
        "id": 3666075,
        "value": 3666075,
        "name": "Victoria",
        "label": "Victoria",
        "text": "Victoria",
        "country": "CO",
        "coord": {
            "lon": -74.911011,
            "lat": 5.31648
        }
    },
    {
        "id": 3666082,
        "value": 3666082,
        "name": "Departamento del Vichada",
        "label": "Departamento del Vichada",
        "text": "Departamento del Vichada",
        "country": "CO",
        "coord": {
            "lon": -69.5,
            "lat": 5.0
        }
    },
    {
        "id": 3666087,
        "value": 3666087,
        "name": "Vianí",
        "label": "Vianí",
        "text": "Vianí",
        "country": "CO",
        "coord": {
            "lon": -74.562439,
            "lat": 4.87384
        }
    },
    {
        "id": 3666092,
        "value": 3666092,
        "name": "Vetas",
        "label": "Vetas",
        "text": "Vetas",
        "country": "CO",
        "coord": {
            "lon": -72.871223,
            "lat": 7.30911
        }
    },
    {
        "id": 3666102,
        "value": 3666102,
        "name": "Versalles",
        "label": "Versalles",
        "text": "Versalles",
        "country": "CO",
        "coord": {
            "lon": -76.198143,
            "lat": 4.57544
        }
    },
    {
        "id": 3666111,
        "value": 3666111,
        "name": "Vergara",
        "label": "Vergara",
        "text": "Vergara",
        "country": "CO",
        "coord": {
            "lon": -74.34549,
            "lat": 5.11841
        }
    },
    {
        "id": 3666163,
        "value": 3666163,
        "name": "Ventaquemada",
        "label": "Ventaquemada",
        "text": "Ventaquemada",
        "country": "CO",
        "coord": {
            "lon": -73.520752,
            "lat": 5.36753
        }
    },
    {
        "id": 3666193,
        "value": 3666193,
        "name": "Venecia",
        "label": "Venecia",
        "text": "Venecia",
        "country": "CO",
        "coord": {
            "lon": -75.73806,
            "lat": 5.96278
        }
    },
    {
        "id": 3666203,
        "value": 3666203,
        "name": "Venecia",
        "label": "Venecia",
        "text": "Venecia",
        "country": "CO",
        "coord": {
            "lon": -74.477463,
            "lat": 4.08808
        }
    },
    {
        "id": 3666226,
        "value": 3666226,
        "name": "Venadillo",
        "label": "Venadillo",
        "text": "Venadillo",
        "country": "CO",
        "coord": {
            "lon": -74.929176,
            "lat": 4.7193
        }
    },
    {
        "id": 3666232,
        "value": 3666232,
        "name": "Vélez",
        "label": "Vélez",
        "text": "Vélez",
        "country": "CO",
        "coord": {
            "lon": -73.673523,
            "lat": 6.01335
        }
    },
    {
        "id": 3666254,
        "value": 3666254,
        "name": "Departamento del Vaupés",
        "label": "Departamento del Vaupés",
        "text": "Departamento del Vaupés",
        "country": "CO",
        "coord": {
            "lon": -70.75,
            "lat": 0.25
        }
    },
    {
        "id": 3666287,
        "value": 3666287,
        "name": "Valparaíso",
        "label": "Valparaíso",
        "text": "Valparaíso",
        "country": "CO",
        "coord": {
            "lon": -75.624222,
            "lat": 5.615
        }
    },
    {
        "id": 3666291,
        "value": 3666291,
        "name": "Valparaíso",
        "label": "Valparaíso",
        "text": "Valparaíso",
        "country": "CO",
        "coord": {
            "lon": -75.707047,
            "lat": 1.19512
        }
    },
    {
        "id": 3666304,
        "value": 3666304,
        "name": "Valledupar",
        "label": "Valledupar",
        "text": "Valledupar",
        "country": "CO",
        "coord": {
            "lon": -73.25322,
            "lat": 10.46314
        }
    },
    {
        "id": 3666309,
        "value": 3666309,
        "name": "Valle de San Juan",
        "label": "Valle de San Juan",
        "text": "Valle de San Juan",
        "country": "CO",
        "coord": {
            "lon": -75.117332,
            "lat": 4.19869
        }
    },
    {
        "id": 3666311,
        "value": 3666311,
        "name": "Valle de San José",
        "label": "Valle de San José",
        "text": "Valle de San José",
        "country": "CO",
        "coord": {
            "lon": -73.143608,
            "lat": 6.4475
        }
    },
    {
        "id": 3666313,
        "value": 3666313,
        "name": "Departamento del Valle del Cauca",
        "label": "Departamento del Valle del Cauca",
        "text": "Departamento del Valle del Cauca",
        "country": "CO",
        "coord": {
            "lon": -76.5,
            "lat": 3.75
        }
    },
    {
        "id": 3666314,
        "value": 3666314,
        "name": "Vallecito",
        "label": "Vallecito",
        "text": "Vallecito",
        "country": "CO",
        "coord": {
            "lon": -75.486969,
            "lat": 6.72594
        }
    },
    {
        "id": 3666326,
        "value": 3666326,
        "name": "Valencia",
        "label": "Valencia",
        "text": "Valencia",
        "country": "CO",
        "coord": {
            "lon": -76.149277,
            "lat": 8.25801
        }
    },
    {
        "id": 3666333,
        "value": 3666333,
        "name": "Valdivia",
        "label": "Valdivia",
        "text": "Valdivia",
        "country": "CO",
        "coord": {
            "lon": -75.397781,
            "lat": 7.28889
        }
    },
    {
        "id": 3666363,
        "value": 3666363,
        "name": "Útica",
        "label": "Útica",
        "text": "Útica",
        "country": "CO",
        "coord": {
            "lon": -74.481049,
            "lat": 5.18727
        }
    },
    {
        "id": 3666370,
        "value": 3666370,
        "name": "Usiacurí",
        "label": "Usiacurí",
        "text": "Usiacurí",
        "country": "CO",
        "coord": {
            "lon": -74.98333,
            "lat": 10.75
        }
    },
    {
        "id": 3666381,
        "value": 3666381,
        "name": "Urumita",
        "label": "Urumita",
        "text": "Urumita",
        "country": "CO",
        "coord": {
            "lon": -73.012321,
            "lat": 10.55894
        }
    },
    {
        "id": 3666395,
        "value": 3666395,
        "name": "Urrao",
        "label": "Urrao",
        "text": "Urrao",
        "country": "CO",
        "coord": {
            "lon": -76.134201,
            "lat": 6.3152
        }
    },
    {
        "id": 3666409,
        "value": 3666409,
        "name": "Uribia",
        "label": "Uribia",
        "text": "Uribia",
        "country": "CO",
        "coord": {
            "lon": -72.266037,
            "lat": 11.7139
        }
    },
    {
        "id": 3666436,
        "value": 3666436,
        "name": "Uramita",
        "label": "Uramita",
        "text": "Uramita",
        "country": "CO",
        "coord": {
            "lon": -76.174171,
            "lat": 6.89944
        }
    },
    {
        "id": 3666475,
        "value": 3666475,
        "name": "Unguía",
        "label": "Unguía",
        "text": "Unguía",
        "country": "CO",
        "coord": {
            "lon": -77.094528,
            "lat": 8.04335
        }
    },
    {
        "id": 3666481,
        "value": 3666481,
        "name": "Une",
        "label": "Une",
        "text": "Une",
        "country": "CO",
        "coord": {
            "lon": -74.025284,
            "lat": 4.40306
        }
    },
    {
        "id": 3666493,
        "value": 3666493,
        "name": "Úmbita",
        "label": "Úmbita",
        "text": "Úmbita",
        "country": "CO",
        "coord": {
            "lon": -73.456947,
            "lat": 5.22041
        }
    },
    {
        "id": 3666502,
        "value": 3666502,
        "name": "Ulloa",
        "label": "Ulloa",
        "text": "Ulloa",
        "country": "CO",
        "coord": {
            "lon": -75.74028,
            "lat": 4.70444
        }
    },
    {
        "id": 3666519,
        "value": 3666519,
        "name": "Villa de San Diego de Ubaté",
        "label": "Villa de San Diego de Ubaté",
        "text": "Villa de San Diego de Ubaté",
        "country": "CO",
        "coord": {
            "lon": -73.815742,
            "lat": 5.30933
        }
    },
    {
        "id": 3666522,
        "value": 3666522,
        "name": "Ubaque",
        "label": "Ubaque",
        "text": "Ubaque",
        "country": "CO",
        "coord": {
            "lon": -73.937477,
            "lat": 4.48668
        }
    },
    {
        "id": 3666526,
        "value": 3666526,
        "name": "Ubalá",
        "label": "Ubalá",
        "text": "Ubalá",
        "country": "CO",
        "coord": {
            "lon": -72.536942,
            "lat": 4.74778
        }
    },
    {
        "id": 3666550,
        "value": 3666550,
        "name": "Tuta",
        "label": "Tuta",
        "text": "Tuta",
        "country": "CO",
        "coord": {
            "lon": -73.227791,
            "lat": 5.68966
        }
    },
    {
        "id": 3666562,
        "value": 3666562,
        "name": "Turmequé",
        "label": "Turmequé",
        "text": "Turmequé",
        "country": "CO",
        "coord": {
            "lon": -73.490669,
            "lat": 5.3236
        }
    },
    {
        "id": 3666570,
        "value": 3666570,
        "name": "Turbo",
        "label": "Turbo",
        "text": "Turbo",
        "country": "CO",
        "coord": {
            "lon": -76.726913,
            "lat": 8.09368
        }
    },
    {
        "id": 3666575,
        "value": 3666575,
        "name": "Turbaná",
        "label": "Turbaná",
        "text": "Turbaná",
        "country": "CO",
        "coord": {
            "lon": -75.442223,
            "lat": 10.2717
        }
    },
    {
        "id": 3666577,
        "value": 3666577,
        "name": "Turbaco",
        "label": "Turbaco",
        "text": "Turbaco",
        "country": "CO",
        "coord": {
            "lon": -75.411369,
            "lat": 10.32944
        }
    },
    {
        "id": 3666582,
        "value": 3666582,
        "name": "Túquerres",
        "label": "Túquerres",
        "text": "Túquerres",
        "country": "CO",
        "coord": {
            "lon": -77.62085,
            "lat": 1.09234
        }
    },
    {
        "id": 3666608,
        "value": 3666608,
        "name": "Tunja",
        "label": "Tunja",
        "text": "Tunja",
        "country": "CO",
        "coord": {
            "lon": -73.367783,
            "lat": 5.53528
        }
    },
    {
        "id": 3666640,
        "value": 3666640,
        "name": "Tumaco",
        "label": "Tumaco",
        "text": "Tumaco",
        "country": "CO",
        "coord": {
            "lon": -78.815559,
            "lat": 1.79861
        }
    },
    {
        "id": 3666645,
        "value": 3666645,
        "name": "Tuluá",
        "label": "Tuluá",
        "text": "Tuluá",
        "country": "CO",
        "coord": {
            "lon": -76.195358,
            "lat": 4.08466
        }
    },
    {
        "id": 3666673,
        "value": 3666673,
        "name": "Tubará",
        "label": "Tubará",
        "text": "Tubará",
        "country": "CO",
        "coord": {
            "lon": -74.978889,
            "lat": 10.87444
        }
    },
    {
        "id": 3666680,
        "value": 3666680,
        "name": "Trujillo",
        "label": "Trujillo",
        "text": "Trujillo",
        "country": "CO",
        "coord": {
            "lon": -76.31945,
            "lat": 4.21217
        }
    },
    {
        "id": 3666719,
        "value": 3666719,
        "name": "Trinidad",
        "label": "Trinidad",
        "text": "Trinidad",
        "country": "CO",
        "coord": {
            "lon": -71.631111,
            "lat": 5.43056
        }
    },
    {
        "id": 3666755,
        "value": 3666755,
        "name": "Tres Esquinas",
        "label": "Tres Esquinas",
        "text": "Tres Esquinas",
        "country": "CO",
        "coord": {
            "lon": -73.800003,
            "lat": 5.05
        }
    },
    {
        "id": 3666834,
        "value": 3666834,
        "name": "Totoró",
        "label": "Totoró",
        "text": "Totoró",
        "country": "CO",
        "coord": {
            "lon": -76.401237,
            "lat": 2.51204
        }
    },
    {
        "id": 3666881,
        "value": 3666881,
        "name": "Toro",
        "label": "Toro",
        "text": "Toro",
        "country": "CO",
        "coord": {
            "lon": -76.08139,
            "lat": 4.61167
        }
    },
    {
        "id": 3666887,
        "value": 3666887,
        "name": "Toribío",
        "label": "Toribío",
        "text": "Toribío",
        "country": "CO",
        "coord": {
            "lon": -76.268387,
            "lat": 2.95481
        }
    },
    {
        "id": 3666903,
        "value": 3666903,
        "name": "Topaipí",
        "label": "Topaipí",
        "text": "Topaipí",
        "country": "CO",
        "coord": {
            "lon": -74.302917,
            "lat": 5.33457
        }
    },
    {
        "id": 3666905,
        "value": 3666905,
        "name": "Tópaga",
        "label": "Tópaga",
        "text": "Tópaga",
        "country": "CO",
        "coord": {
            "lon": -72.825829,
            "lat": 5.75979
        }
    },
    {
        "id": 3666936,
        "value": 3666936,
        "name": "Tolú Viejo",
        "label": "Tolú Viejo",
        "text": "Tolú Viejo",
        "country": "CO",
        "coord": {
            "lon": -75.438637,
            "lat": 9.45082
        }
    },
    {
        "id": 3666939,
        "value": 3666939,
        "name": "Santiago de Tolú",
        "label": "Santiago de Tolú",
        "text": "Santiago de Tolú",
        "country": "CO",
        "coord": {
            "lon": -75.58139,
            "lat": 9.52392
        }
    },
    {
        "id": 3666951,
        "value": 3666951,
        "name": "Departamento de Tolima",
        "label": "Departamento de Tolima",
        "text": "Departamento de Tolima",
        "country": "CO",
        "coord": {
            "lon": -75.25,
            "lat": 3.75
        }
    },
    {
        "id": 3666959,
        "value": 3666959,
        "name": "Toledo",
        "label": "Toledo",
        "text": "Toledo",
        "country": "CO",
        "coord": {
            "lon": -72.482948,
            "lat": 7.30984
        }
    },
    {
        "id": 3666997,
        "value": 3666997,
        "name": "Tocancipá",
        "label": "Tocancipá",
        "text": "Tocancipá",
        "country": "CO",
        "coord": {
            "lon": -73.91301,
            "lat": 4.96531
        }
    },
    {
        "id": 3667003,
        "value": 3667003,
        "name": "Tocaima",
        "label": "Tocaima",
        "text": "Tocaima",
        "country": "CO",
        "coord": {
            "lon": -74.634338,
            "lat": 4.4582
        }
    },
    {
        "id": 3667007,
        "value": 3667007,
        "name": "Toca",
        "label": "Toca",
        "text": "Toca",
        "country": "CO",
        "coord": {
            "lon": -73.183983,
            "lat": 5.56392
        }
    },
    {
        "id": 3667023,
        "value": 3667023,
        "name": "Titiribí",
        "label": "Titiribí",
        "text": "Titiribí",
        "country": "CO",
        "coord": {
            "lon": -75.793701,
            "lat": 6.06276
        }
    },
    {
        "id": 3667044,
        "value": 3667044,
        "name": "Tipacoque",
        "label": "Tipacoque",
        "text": "Tipacoque",
        "country": "CO",
        "coord": {
            "lon": -72.691841,
            "lat": 6.42031
        }
    },
    {
        "id": 3667070,
        "value": 3667070,
        "name": "Timbiquí",
        "label": "Timbiquí",
        "text": "Timbiquí",
        "country": "CO",
        "coord": {
            "lon": -77.665359,
            "lat": 2.7717
        }
    },
    {
        "id": 3667082,
        "value": 3667082,
        "name": "Timaná",
        "label": "Timaná",
        "text": "Timaná",
        "country": "CO",
        "coord": {
            "lon": -75.931229,
            "lat": 1.97136
        }
    },
    {
        "id": 3667158,
        "value": 3667158,
        "name": "Tierralta",
        "label": "Tierralta",
        "text": "Tierralta",
        "country": "CO",
        "coord": {
            "lon": -76.059174,
            "lat": 8.17361
        }
    },
    {
        "id": 3667202,
        "value": 3667202,
        "name": "Tibú",
        "label": "Tibú",
        "text": "Tibú",
        "country": "CO",
        "coord": {
            "lon": -72.735832,
            "lat": 8.63896
        }
    },
    {
        "id": 3667211,
        "value": 3667211,
        "name": "Tibasosa",
        "label": "Tibasosa",
        "text": "Tibasosa",
        "country": "CO",
        "coord": {
            "lon": -73.0,
            "lat": 5.75
        }
    },
    {
        "id": 3667218,
        "value": 3667218,
        "name": "Tibaná",
        "label": "Tibaná",
        "text": "Tibaná",
        "country": "CO",
        "coord": {
            "lon": -73.396553,
            "lat": 5.31728
        }
    },
    {
        "id": 3667244,
        "value": 3667244,
        "name": "Tesalia",
        "label": "Tesalia",
        "text": "Tesalia",
        "country": "CO",
        "coord": {
            "lon": -75.72921,
            "lat": 2.48587
        }
    },
    {
        "id": 3667247,
        "value": 3667247,
        "name": "Teruel",
        "label": "Teruel",
        "text": "Teruel",
        "country": "CO",
        "coord": {
            "lon": -75.567383,
            "lat": 2.74193
        }
    },
    {
        "id": 3667288,
        "value": 3667288,
        "name": "Tenza",
        "label": "Tenza",
        "text": "Tenza",
        "country": "CO",
        "coord": {
            "lon": -73.420769,
            "lat": 5.07664
        }
    },
    {
        "id": 3667290,
        "value": 3667290,
        "name": "Tenjo",
        "label": "Tenjo",
        "text": "Tenjo",
        "country": "CO",
        "coord": {
            "lon": -74.144348,
            "lat": 4.8727
        }
    },
    {
        "id": 3667323,
        "value": 3667323,
        "name": "Tello",
        "label": "Tello",
        "text": "Tello",
        "country": "CO",
        "coord": {
            "lon": -75.137779,
            "lat": 3.06694
        }
    },
    {
        "id": 3667351,
        "value": 3667351,
        "name": "Tausa",
        "label": "Tausa",
        "text": "Tausa",
        "country": "CO",
        "coord": {
            "lon": -73.891281,
            "lat": 5.19903
        }
    },
    {
        "id": 3667355,
        "value": 3667355,
        "name": "Tauramena",
        "label": "Tauramena",
        "text": "Tauramena",
        "country": "CO",
        "coord": {
            "lon": -72.749191,
            "lat": 5.01831
        }
    },
    {
        "id": 3667373,
        "value": 3667373,
        "name": "Tasco",
        "label": "Tasco",
        "text": "Tasco",
        "country": "CO",
        "coord": {
            "lon": -72.780006,
            "lat": 5.91044
        }
    },
    {
        "id": 3667380,
        "value": 3667380,
        "name": "Tarso",
        "label": "Tarso",
        "text": "Tarso",
        "country": "CO",
        "coord": {
            "lon": -75.821922,
            "lat": 5.86467
        }
    },
    {
        "id": 3667386,
        "value": 3667386,
        "name": "Tarqui",
        "label": "Tarqui",
        "text": "Tarqui",
        "country": "CO",
        "coord": {
            "lon": -75.824188,
            "lat": 2.11248
        }
    },
    {
        "id": 3667402,
        "value": 3667402,
        "name": "Tarazá",
        "label": "Tarazá",
        "text": "Tarazá",
        "country": "CO",
        "coord": {
            "lon": -75.400681,
            "lat": 7.58358
        }
    },
    {
        "id": 3667447,
        "value": 3667447,
        "name": "Tangua",
        "label": "Tangua",
        "text": "Tangua",
        "country": "CO",
        "coord": {
            "lon": -77.394821,
            "lat": 1.09473
        }
    },
    {
        "id": 3667471,
        "value": 3667471,
        "name": "Taminango",
        "label": "Taminango",
        "text": "Taminango",
        "country": "CO",
        "coord": {
            "lon": -77.286659,
            "lat": 1.57491
        }
    },
    {
        "id": 3667473,
        "value": 3667473,
        "name": "Támesis",
        "label": "Támesis",
        "text": "Támesis",
        "country": "CO",
        "coord": {
            "lon": -75.713387,
            "lat": 5.66462
        }
    },
    {
        "id": 3667478,
        "value": 3667478,
        "name": "Tame",
        "label": "Tame",
        "text": "Tame",
        "country": "CO",
        "coord": {
            "lon": -71.730042,
            "lat": 6.461
        }
    },
    {
        "id": 3667516,
        "value": 3667516,
        "name": "Támara",
        "label": "Támara",
        "text": "Támara",
        "country": "CO",
        "coord": {
            "lon": -72.16333,
            "lat": 5.82972
        }
    },
    {
        "id": 3667528,
        "value": 3667528,
        "name": "Tamalameque",
        "label": "Tamalameque",
        "text": "Tamalameque",
        "country": "CO",
        "coord": {
            "lon": -73.812286,
            "lat": 8.85221
        }
    },
    {
        "id": 3667547,
        "value": 3667547,
        "name": "Talaigua Viejo",
        "label": "Talaigua Viejo",
        "text": "Talaigua Viejo",
        "country": "CO",
        "coord": {
            "lon": -74.585442,
            "lat": 9.31206
        }
    },
    {
        "id": 3667579,
        "value": 3667579,
        "name": "Tadó",
        "label": "Tadó",
        "text": "Tadó",
        "country": "CO",
        "coord": {
            "lon": -76.564873,
            "lat": 5.26598
        }
    },
    {
        "id": 3667629,
        "value": 3667629,
        "name": "Tabio",
        "label": "Tabio",
        "text": "Tabio",
        "country": "CO",
        "coord": {
            "lon": -74.093643,
            "lat": 4.91726
        }
    },
    {
        "id": 3667649,
        "value": 3667649,
        "name": "Sutatausa",
        "label": "Sutatausa",
        "text": "Sutatausa",
        "country": "CO",
        "coord": {
            "lon": -73.852379,
            "lat": 5.24779
        }
    },
    {
        "id": 3667651,
        "value": 3667651,
        "name": "Sutamarchán",
        "label": "Sutamarchán",
        "text": "Sutamarchán",
        "country": "CO",
        "coord": {
            "lon": -73.617012,
            "lat": 5.61538
        }
    },
    {
        "id": 3667660,
        "value": 3667660,
        "name": "Susacón",
        "label": "Susacón",
        "text": "Susacón",
        "country": "CO",
        "coord": {
            "lon": -72.690102,
            "lat": 6.22978
        }
    },
    {
        "id": 3667665,
        "value": 3667665,
        "name": "Susa",
        "label": "Susa",
        "text": "Susa",
        "country": "CO",
        "coord": {
            "lon": -73.814362,
            "lat": 5.4519
        }
    },
    {
        "id": 3667697,
        "value": 3667697,
        "name": "Supía",
        "label": "Supía",
        "text": "Supía",
        "country": "CO",
        "coord": {
            "lon": -75.650719,
            "lat": 5.45303
        }
    },
    {
        "id": 3667701,
        "value": 3667701,
        "name": "Supatá",
        "label": "Supatá",
        "text": "Supatá",
        "country": "CO",
        "coord": {
            "lon": -74.237198,
            "lat": 5.06097
        }
    },
    {
        "id": 3667717,
        "value": 3667717,
        "name": "Suesca",
        "label": "Suesca",
        "text": "Suesca",
        "country": "CO",
        "coord": {
            "lon": -73.798447,
            "lat": 5.10289
        }
    },
    {
        "id": 3667725,
        "value": 3667725,
        "name": "Departamento de Sucre",
        "label": "Departamento de Sucre",
        "text": "Departamento de Sucre",
        "country": "CO",
        "coord": {
            "lon": -75.0,
            "lat": 9.0
        }
    },
    {
        "id": 3667728,
        "value": 3667728,
        "name": "Sucre",
        "label": "Sucre",
        "text": "Sucre",
        "country": "CO",
        "coord": {
            "lon": -74.72084,
            "lat": 8.81136
        }
    },
    {
        "id": 3667731,
        "value": 3667731,
        "name": "Sucre",
        "label": "Sucre",
        "text": "Sucre",
        "country": "CO",
        "coord": {
            "lon": -73.791092,
            "lat": 5.91833
        }
    },
    {
        "id": 3667732,
        "value": 3667732,
        "name": "Sucre",
        "label": "Sucre",
        "text": "Sucre",
        "country": "CO",
        "coord": {
            "lon": -76.924461,
            "lat": 2.03805
        }
    },
    {
        "id": 3667760,
        "value": 3667760,
        "name": "Subachoque",
        "label": "Subachoque",
        "text": "Subachoque",
        "country": "CO",
        "coord": {
            "lon": -74.172989,
            "lat": 4.92614
        }
    },
    {
        "id": 3667764,
        "value": 3667764,
        "name": "Suaza",
        "label": "Suaza",
        "text": "Suaza",
        "country": "CO",
        "coord": {
            "lon": -75.79454,
            "lat": 1.97611
        }
    },
    {
        "id": 3667772,
        "value": 3667772,
        "name": "Suárez",
        "label": "Suárez",
        "text": "Suárez",
        "country": "CO",
        "coord": {
            "lon": -74.831978,
            "lat": 4.04906
        }
    },
    {
        "id": 3667773,
        "value": 3667773,
        "name": "Suárez",
        "label": "Suárez",
        "text": "Suárez",
        "country": "CO",
        "coord": {
            "lon": -76.696442,
            "lat": 2.95395
        }
    },
    {
        "id": 3667780,
        "value": 3667780,
        "name": "Suan",
        "label": "Suan",
        "text": "Suan",
        "country": "CO",
        "coord": {
            "lon": -74.880157,
            "lat": 10.33347
        }
    },
    {
        "id": 3667783,
        "value": 3667783,
        "name": "Suaita",
        "label": "Suaita",
        "text": "Suaita",
        "country": "CO",
        "coord": {
            "lon": -73.440407,
            "lat": 6.1014
        }
    },
    {
        "id": 3667791,
        "value": 3667791,
        "name": "Sotomayor",
        "label": "Sotomayor",
        "text": "Sotomayor",
        "country": "CO",
        "coord": {
            "lon": -77.50444,
            "lat": 1.51469
        }
    },
    {
        "id": 3667796,
        "value": 3667796,
        "name": "Sotaquirá",
        "label": "Sotaquirá",
        "text": "Sotaquirá",
        "country": "CO",
        "coord": {
            "lon": -73.247581,
            "lat": 5.76483
        }
    },
    {
        "id": 3667807,
        "value": 3667807,
        "name": "Sopó",
        "label": "Sopó",
        "text": "Sopó",
        "country": "CO",
        "coord": {
            "lon": -73.9384,
            "lat": 4.9075
        }
    },
    {
        "id": 3667811,
        "value": 3667811,
        "name": "Soplaviento",
        "label": "Soplaviento",
        "text": "Soplaviento",
        "country": "CO",
        "coord": {
            "lon": -75.140831,
            "lat": 10.39306
        }
    },
    {
        "id": 3667816,
        "value": 3667816,
        "name": "Sopetrán",
        "label": "Sopetrán",
        "text": "Sopetrán",
        "country": "CO",
        "coord": {
            "lon": -75.747498,
            "lat": 6.67028
        }
    },
    {
        "id": 3667820,
        "value": 3667820,
        "name": "Sonsón",
        "label": "Sonsón",
        "text": "Sonsón",
        "country": "CO",
        "coord": {
            "lon": -75.310677,
            "lat": 5.71062
        }
    },
    {
        "id": 3667834,
        "value": 3667834,
        "name": "Somondoco",
        "label": "Somondoco",
        "text": "Somondoco",
        "country": "CO",
        "coord": {
            "lon": -73.436111,
            "lat": 4.98778
        }
    },
    {
        "id": 3667849,
        "value": 3667849,
        "name": "Soledad",
        "label": "Soledad",
        "text": "Soledad",
        "country": "CO",
        "coord": {
            "lon": -74.764587,
            "lat": 10.91843
        }
    },
    {
        "id": 3667868,
        "value": 3667868,
        "name": "Solano",
        "label": "Solano",
        "text": "Solano",
        "country": "CO",
        "coord": {
            "lon": -75.253532,
            "lat": 0.69937
        }
    },
    {
        "id": 3667873,
        "value": 3667873,
        "name": "Sogamoso",
        "label": "Sogamoso",
        "text": "Sogamoso",
        "country": "CO",
        "coord": {
            "lon": -72.933907,
            "lat": 5.71434
        }
    },
    {
        "id": 3667880,
        "value": 3667880,
        "name": "Socotá",
        "label": "Socotá",
        "text": "Socotá",
        "country": "CO",
        "coord": {
            "lon": -72.635094,
            "lat": 6.04028
        }
    },
    {
        "id": 3667887,
        "value": 3667887,
        "name": "Socorro",
        "label": "Socorro",
        "text": "Socorro",
        "country": "CO",
        "coord": {
            "lon": -73.260223,
            "lat": 6.46838
        }
    },
    {
        "id": 3667892,
        "value": 3667892,
        "name": "Socha Viejo",
        "label": "Socha Viejo",
        "text": "Socha Viejo",
        "country": "CO",
        "coord": {
            "lon": -72.715027,
            "lat": 5.9817
        }
    },
    {
        "id": 3667901,
        "value": 3667901,
        "name": "Soatá",
        "label": "Soatá",
        "text": "Soatá",
        "country": "CO",
        "coord": {
            "lon": -72.682831,
            "lat": 6.33369
        }
    },
    {
        "id": 3667905,
        "value": 3667905,
        "name": "Soacha",
        "label": "Soacha",
        "text": "Soacha",
        "country": "CO",
        "coord": {
            "lon": -74.21682,
            "lat": 4.57937
        }
    },
    {
        "id": 3667918,
        "value": 3667918,
        "name": "Sitionuevo",
        "label": "Sitionuevo",
        "text": "Sitionuevo",
        "country": "CO",
        "coord": {
            "lon": -74.72049,
            "lat": 10.77737
        }
    },
    {
        "id": 3667983,
        "value": 3667983,
        "name": "Sincelejo",
        "label": "Sincelejo",
        "text": "Sincelejo",
        "country": "CO",
        "coord": {
            "lon": -75.397781,
            "lat": 9.30472
        }
    },
    {
        "id": 3667991,
        "value": 3667991,
        "name": "San Luis de Sincé",
        "label": "San Luis de Sincé",
        "text": "San Luis de Sincé",
        "country": "CO",
        "coord": {
            "lon": -75.146751,
            "lat": 9.24391
        }
    },
    {
        "id": 3668012,
        "value": 3668012,
        "name": "Simití",
        "label": "Simití",
        "text": "Simití",
        "country": "CO",
        "coord": {
            "lon": -73.943604,
            "lat": 7.9579
        }
    },
    {
        "id": 3668017,
        "value": 3668017,
        "name": "Simijaca",
        "label": "Simijaca",
        "text": "Simijaca",
        "country": "CO",
        "coord": {
            "lon": -73.852272,
            "lat": 5.50291
        }
    },
    {
        "id": 3668023,
        "value": 3668023,
        "name": "Simacota",
        "label": "Simacota",
        "text": "Simacota",
        "country": "CO",
        "coord": {
            "lon": -73.336884,
            "lat": 6.4429
        }
    },
    {
        "id": 3668025,
        "value": 3668025,
        "name": "Silvia",
        "label": "Silvia",
        "text": "Silvia",
        "country": "CO",
        "coord": {
            "lon": -76.378532,
            "lat": 2.61103
        }
    },
    {
        "id": 3668028,
        "value": 3668028,
        "name": "Silvania",
        "label": "Silvania",
        "text": "Silvania",
        "country": "CO",
        "coord": {
            "lon": -74.386703,
            "lat": 4.40367
        }
    },
    {
        "id": 3668033,
        "value": 3668033,
        "name": "Silos",
        "label": "Silos",
        "text": "Silos",
        "country": "CO",
        "coord": {
            "lon": -72.756393,
            "lat": 7.20524
        }
    },
    {
        "id": 3668078,
        "value": 3668078,
        "name": "Sibundoy",
        "label": "Sibundoy",
        "text": "Sibundoy",
        "country": "CO",
        "coord": {
            "lon": -76.92366,
            "lat": 1.20478
        }
    },
    {
        "id": 3668087,
        "value": 3668087,
        "name": "Sibaté",
        "label": "Sibaté",
        "text": "Sibaté",
        "country": "CO",
        "coord": {
            "lon": -74.244987,
            "lat": 4.48425
        }
    },
    {
        "id": 3668096,
        "value": 3668096,
        "name": "Siachoque",
        "label": "Siachoque",
        "text": "Siachoque",
        "country": "CO",
        "coord": {
            "lon": -73.244362,
            "lat": 5.51238
        }
    },
    {
        "id": 3668098,
        "value": 3668098,
        "name": "Siachia",
        "label": "Siachia",
        "text": "Siachia",
        "country": "CO",
        "coord": {
            "lon": -72.699997,
            "lat": 6.33333
        }
    },
    {
        "id": 3668132,
        "value": 3668132,
        "name": "Sevilla",
        "label": "Sevilla",
        "text": "Sevilla",
        "country": "CO",
        "coord": {
            "lon": -75.930847,
            "lat": 4.26425
        }
    },
    {
        "id": 3668138,
        "value": 3668138,
        "name": "Sesquilé",
        "label": "Sesquilé",
        "text": "Sesquilé",
        "country": "CO",
        "coord": {
            "lon": -73.800827,
            "lat": 5.0475
        }
    },
    {
        "id": 3668175,
        "value": 3668175,
        "name": "Segovia",
        "label": "Segovia",
        "text": "Segovia",
        "country": "CO",
        "coord": {
            "lon": -74.698898,
            "lat": 7.07993
        }
    },
    {
        "id": 3668228,
        "value": 3668228,
        "name": "Sasaima",
        "label": "Sasaima",
        "text": "Sasaima",
        "country": "CO",
        "coord": {
            "lon": -74.43512,
            "lat": 4.96611
        }
    },
    {
        "id": 3668245,
        "value": 3668245,
        "name": "Sardinata",
        "label": "Sardinata",
        "text": "Sardinata",
        "country": "CO",
        "coord": {
            "lon": -72.800713,
            "lat": 8.08289
        }
    },
    {
        "id": 3668257,
        "value": 3668257,
        "name": "Saravena",
        "label": "Saravena",
        "text": "Saravena",
        "country": "CO",
        "coord": {
            "lon": -71.875229,
            "lat": 6.95376
        }
    },
    {
        "id": 3668263,
        "value": 3668263,
        "name": "Sarancocho",
        "label": "Sarancocho",
        "text": "Sarancocho",
        "country": "CO",
        "coord": {
            "lon": -77.599998,
            "lat": 1.35
        }
    },
    {
        "id": 3668268,
        "value": 3668268,
        "name": "Sapuyes",
        "label": "Sapuyes",
        "text": "Sapuyes",
        "country": "CO",
        "coord": {
            "lon": -77.620941,
            "lat": 1.03728
        }
    },
    {
        "id": 3668286,
        "value": 3668286,
        "name": "San Zenón",
        "label": "San Zenón",
        "text": "San Zenón",
        "country": "CO",
        "coord": {
            "lon": -74.500366,
            "lat": 9.24217
        }
    },
    {
        "id": 3668292,
        "value": 3668292,
        "name": "San Vicente de Chucurí",
        "label": "San Vicente de Chucurí",
        "text": "San Vicente de Chucurí",
        "country": "CO",
        "coord": {
            "lon": -73.409767,
            "lat": 6.881
        }
    },
    {
        "id": 3668302,
        "value": 3668302,
        "name": "San Vicente",
        "label": "San Vicente",
        "text": "San Vicente",
        "country": "CO",
        "coord": {
            "lon": -75.336113,
            "lat": 6.23278
        }
    },
    {
        "id": 3668323,
        "value": 3668323,
        "name": "Santuario",
        "label": "Santuario",
        "text": "Santuario",
        "country": "CO",
        "coord": {
            "lon": -75.264168,
            "lat": 6.13833
        }
    },
    {
        "id": 3668324,
        "value": 3668324,
        "name": "Santuario",
        "label": "Santuario",
        "text": "Santuario",
        "country": "CO",
        "coord": {
            "lon": -75.963409,
            "lat": 5.07237
        }
    },
    {
        "id": 3668332,
        "value": 3668332,
        "name": "Santo Tomás",
        "label": "Santo Tomás",
        "text": "Santo Tomás",
        "country": "CO",
        "coord": {
            "lon": -74.754509,
            "lat": 10.75773
        }
    },
    {
        "id": 3668373,
        "value": 3668373,
        "name": "Santo Domingo",
        "label": "Santo Domingo",
        "text": "Santo Domingo",
        "country": "CO",
        "coord": {
            "lon": -75.164719,
            "lat": 6.47222
        }
    },
    {
        "id": 3668396,
        "value": 3668396,
        "name": "Santiago",
        "label": "Santiago",
        "text": "Santiago",
        "country": "CO",
        "coord": {
            "lon": -72.716202,
            "lat": 7.86432
        }
    },
    {
        "id": 3668400,
        "value": 3668400,
        "name": "Santiago",
        "label": "Santiago",
        "text": "Santiago",
        "country": "CO",
        "coord": {
            "lon": -77.004501,
            "lat": 1.14844
        }
    },
    {
        "id": 3668434,
        "value": 3668434,
        "name": "Santa Sofía",
        "label": "Santa Sofía",
        "text": "Santa Sofía",
        "country": "CO",
        "coord": {
            "lon": -73.604042,
            "lat": 5.70908
        }
    },
    {
        "id": 3668447,
        "value": 3668447,
        "name": "Santa Rosa de Viterbo",
        "label": "Santa Rosa de Viterbo",
        "text": "Santa Rosa de Viterbo",
        "country": "CO",
        "coord": {
            "lon": -72.98217,
            "lat": 5.87401
        }
    },
    {
        "id": 3668451,
        "value": 3668451,
        "name": "Santa Rosa de Osos",
        "label": "Santa Rosa de Osos",
        "text": "Santa Rosa de Osos",
        "country": "CO",
        "coord": {
            "lon": -75.460297,
            "lat": 6.64738
        }
    },
    {
        "id": 3668454,
        "value": 3668454,
        "name": "Santa Rosa de Cabal",
        "label": "Santa Rosa de Cabal",
        "text": "Santa Rosa de Cabal",
        "country": "CO",
        "coord": {
            "lon": -75.621391,
            "lat": 4.86806
        }
    },
    {
        "id": 3668472,
        "value": 3668472,
        "name": "Santa Rosa",
        "label": "Santa Rosa",
        "text": "Santa Rosa",
        "country": "CO",
        "coord": {
            "lon": -75.36972,
            "lat": 10.44472
        }
    },
    {
        "id": 3668562,
        "value": 3668562,
        "name": "Santa Rita",
        "label": "Santa Rita",
        "text": "Santa Rita",
        "country": "CO",
        "coord": {
            "lon": -68.361122,
            "lat": 4.86775
        }
    },
    {
        "id": 3668564,
        "value": 3668564,
        "name": "Santa Rita",
        "label": "Santa Rita",
        "text": "Santa Rita",
        "country": "CO",
        "coord": {
            "lon": -75.148888,
            "lat": 4.41639
        }
    },
    {
        "id": 3668572,
        "value": 3668572,
        "name": "Santander de Quilichao",
        "label": "Santander de Quilichao",
        "text": "Santander de Quilichao",
        "country": "CO",
        "coord": {
            "lon": -76.48494,
            "lat": 3.00945
        }
    },
    {
        "id": 3668578,
        "value": 3668578,
        "name": "Departamento de Santander",
        "label": "Departamento de Santander",
        "text": "Departamento de Santander",
        "country": "CO",
        "coord": {
            "lon": -73.25,
            "lat": 7.0
        }
    },
    {
        "id": 3668594,
        "value": 3668594,
        "name": "Santana",
        "label": "Santana",
        "text": "Santana",
        "country": "CO",
        "coord": {
            "lon": -73.481117,
            "lat": 6.0575
        }
    },
    {
        "id": 3668605,
        "value": 3668605,
        "name": "Santa Marta",
        "label": "Santa Marta",
        "text": "Santa Marta",
        "country": "CO",
        "coord": {
            "lon": -74.199043,
            "lat": 11.24079
        }
    },
    {
        "id": 3668631,
        "value": 3668631,
        "name": "Santa María",
        "label": "Santa María",
        "text": "Santa María",
        "country": "CO",
        "coord": {
            "lon": -73.262337,
            "lat": 4.86048
        }
    },
    {
        "id": 3668635,
        "value": 3668635,
        "name": "Santa María",
        "label": "Santa María",
        "text": "Santa María",
        "country": "CO",
        "coord": {
            "lon": -75.650002,
            "lat": 2.95
        }
    },
    {
        "id": 3668655,
        "value": 3668655,
        "name": "Santa Lucía",
        "label": "Santa Lucía",
        "text": "Santa Lucía",
        "country": "CO",
        "coord": {
            "lon": -74.960167,
            "lat": 10.3242
        }
    },
    {
        "id": 3668716,
        "value": 3668716,
        "name": "Santa Isabel",
        "label": "Santa Isabel",
        "text": "Santa Isabel",
        "country": "CO",
        "coord": {
            "lon": -75.097992,
            "lat": 4.71418
        }
    },
    {
        "id": 3668861,
        "value": 3668861,
        "name": "Santa Catalina",
        "label": "Santa Catalina",
        "text": "Santa Catalina",
        "country": "CO",
        "coord": {
            "lon": -75.288239,
            "lat": 10.60361
        }
    },
    {
        "id": 3668895,
        "value": 3668895,
        "name": "Santa Bárbara",
        "label": "Santa Bárbara",
        "text": "Santa Bárbara",
        "country": "CO",
        "coord": {
            "lon": -75.567062,
            "lat": 5.87458
        }
    },
    {
        "id": 3668937,
        "value": 3668937,
        "name": "Santa Ana",
        "label": "Santa Ana",
        "text": "Santa Ana",
        "country": "CO",
        "coord": {
            "lon": -74.568481,
            "lat": 9.32125
        }
    },
    {
        "id": 3669011,
        "value": 3669011,
        "name": "San Roque",
        "label": "San Roque",
        "text": "San Roque",
        "country": "CO",
        "coord": {
            "lon": -75.0196,
            "lat": 6.48511
        }
    },
    {
        "id": 3669056,
        "value": 3669056,
        "name": "San Rafael",
        "label": "San Rafael",
        "text": "San Rafael",
        "country": "CO",
        "coord": {
            "lon": -75.025887,
            "lat": 6.29436
        }
    },
    {
        "id": 3669067,
        "value": 3669067,
        "name": "San Rafael",
        "label": "San Rafael",
        "text": "San Rafael",
        "country": "CO",
        "coord": {
            "lon": -74.773407,
            "lat": 4.27724
        }
    },
    {
        "id": 3669084,
        "value": 3669084,
        "name": "San Pelayo",
        "label": "San Pelayo",
        "text": "San Pelayo",
        "country": "CO",
        "coord": {
            "lon": -75.836273,
            "lat": 8.95833
        }
    },
    {
        "id": 3669087,
        "value": 3669087,
        "name": "San Pedro de Urabá",
        "label": "San Pedro de Urabá",
        "text": "San Pedro de Urabá",
        "country": "CO",
        "coord": {
            "lon": -76.376411,
            "lat": 8.27515
        }
    },
    {
        "id": 3669128,
        "value": 3669128,
        "name": "San Pedro",
        "label": "San Pedro",
        "text": "San Pedro",
        "country": "CO",
        "coord": {
            "lon": -75.064758,
            "lat": 9.3956
        }
    },
    {
        "id": 3669133,
        "value": 3669133,
        "name": "San Pedro",
        "label": "San Pedro",
        "text": "San Pedro",
        "country": "CO",
        "coord": {
            "lon": -72.51667,
            "lat": 7.83333
        }
    },
    {
        "id": 3669138,
        "value": 3669138,
        "name": "San Pedro",
        "label": "San Pedro",
        "text": "San Pedro",
        "country": "CO",
        "coord": {
            "lon": -75.556557,
            "lat": 6.46221
        }
    },
    {
        "id": 3669156,
        "value": 3669156,
        "name": "San Pedro",
        "label": "San Pedro",
        "text": "San Pedro",
        "country": "CO",
        "coord": {
            "lon": -76.227798,
            "lat": 3.99456
        }
    },
    {
        "id": 3669173,
        "value": 3669173,
        "name": "San Pablo de Borbur",
        "label": "San Pablo de Borbur",
        "text": "San Pablo de Borbur",
        "country": "CO",
        "coord": {
            "lon": -74.062119,
            "lat": 5.66034
        }
    },
    {
        "id": 3669188,
        "value": 3669188,
        "name": "San Pablo",
        "label": "San Pablo",
        "text": "San Pablo",
        "country": "CO",
        "coord": {
            "lon": -75.267754,
            "lat": 10.05154
        }
    },
    {
        "id": 3669214,
        "value": 3669214,
        "name": "San Pablo",
        "label": "San Pablo",
        "text": "San Pablo",
        "country": "CO",
        "coord": {
            "lon": -77.013893,
            "lat": 1.6725
        }
    },
    {
        "id": 3669218,
        "value": 3669218,
        "name": "San Onofre",
        "label": "San Onofre",
        "text": "San Onofre",
        "country": "CO",
        "coord": {
            "lon": -75.52626,
            "lat": 9.73586
        }
    },
    {
        "id": 3669293,
        "value": 3669293,
        "name": "La Dorada",
        "label": "La Dorada",
        "text": "La Dorada",
        "country": "CO",
        "coord": {
            "lon": -76.91124,
            "lat": 0.34314
        }
    },
    {
        "id": 3669310,
        "value": 3669310,
        "name": "San Mateo",
        "label": "San Mateo",
        "text": "San Mateo",
        "country": "CO",
        "coord": {
            "lon": -72.555634,
            "lat": 6.40111
        }
    },
    {
        "id": 3669332,
        "value": 3669332,
        "name": "San Martín",
        "label": "San Martín",
        "text": "San Martín",
        "country": "CO",
        "coord": {
            "lon": -73.699577,
            "lat": 3.69637
        }
    },
    {
        "id": 3669346,
        "value": 3669346,
        "name": "San Marcos",
        "label": "San Marcos",
        "text": "San Marcos",
        "country": "CO",
        "coord": {
            "lon": -75.12809,
            "lat": 8.65972
        }
    },
    {
        "id": 3669352,
        "value": 3669352,
        "name": "San Luis de Palenque",
        "label": "San Luis de Palenque",
        "text": "San Luis de Palenque",
        "country": "CO",
        "coord": {
            "lon": -71.731667,
            "lat": 5.42139
        }
    },
    {
        "id": 3669355,
        "value": 3669355,
        "name": "San Luis de Gaceno",
        "label": "San Luis de Gaceno",
        "text": "San Luis de Gaceno",
        "country": "CO",
        "coord": {
            "lon": -73.16851,
            "lat": 4.82052
        }
    },
    {
        "id": 3669358,
        "value": 3669358,
        "name": "Cubarral",
        "label": "Cubarral",
        "text": "Cubarral",
        "country": "CO",
        "coord": {
            "lon": -73.84063,
            "lat": 3.79352
        }
    },
    {
        "id": 3669399,
        "value": 3669399,
        "name": "San Luis",
        "label": "San Luis",
        "text": "San Luis",
        "country": "CO",
        "coord": {
            "lon": -75.094994,
            "lat": 4.13258
        }
    },
    {
        "id": 3669440,
        "value": 3669440,
        "name": "San Lorenzo",
        "label": "San Lorenzo",
        "text": "San Lorenzo",
        "country": "CO",
        "coord": {
            "lon": -77.218979,
            "lat": 1.50628
        }
    },
    {
        "id": 3669454,
        "value": 3669454,
        "name": "San Juan Nepomuceno",
        "label": "San Juan Nepomuceno",
        "text": "San Juan Nepomuceno",
        "country": "CO",
        "coord": {
            "lon": -75.081978,
            "lat": 9.95156
        }
    },
    {
        "id": 3669461,
        "value": 3669461,
        "name": "San Juan de Urabá",
        "label": "San Juan de Urabá",
        "text": "San Juan de Urabá",
        "country": "CO",
        "coord": {
            "lon": -76.529694,
            "lat": 8.75924
        }
    },
    {
        "id": 3669469,
        "value": 3669469,
        "name": "San Juan del Cesar",
        "label": "San Juan del Cesar",
        "text": "San Juan del Cesar",
        "country": "CO",
        "coord": {
            "lon": -73.003143,
            "lat": 10.77108
        }
    },
    {
        "id": 3669480,
        "value": 3669480,
        "name": "San Juan de Betulia",
        "label": "San Juan de Betulia",
        "text": "San Juan de Betulia",
        "country": "CO",
        "coord": {
            "lon": -75.241028,
            "lat": 9.27345
        }
    },
    {
        "id": 3669482,
        "value": 3669482,
        "name": "San Juan de Arama",
        "label": "San Juan de Arama",
        "text": "San Juan de Arama",
        "country": "CO",
        "coord": {
            "lon": -73.889442,
            "lat": 3.34639
        }
    },
    {
        "id": 3669545,
        "value": 3669545,
        "name": "San José de Miranda",
        "label": "San José de Miranda",
        "text": "San José de Miranda",
        "country": "CO",
        "coord": {
            "lon": -72.733437,
            "lat": 6.6587
        }
    },
    {
        "id": 3669549,
        "value": 3669549,
        "name": "San José del Palmar",
        "label": "San José del Palmar",
        "text": "San José del Palmar",
        "country": "CO",
        "coord": {
            "lon": -76.228333,
            "lat": 4.97417
        }
    },
    {
        "id": 3669557,
        "value": 3669557,
        "name": "San José de la Montaña",
        "label": "San José de la Montaña",
        "text": "San José de la Montaña",
        "country": "CO",
        "coord": {
            "lon": -75.683327,
            "lat": 6.85028
        }
    },
    {
        "id": 3669623,
        "value": 3669623,
        "name": "San José",
        "label": "San José",
        "text": "San José",
        "country": "CO",
        "coord": {
            "lon": -75.78833,
            "lat": 5.08583
        }
    },
    {
        "id": 3669654,
        "value": 3669654,
        "name": "San José",
        "label": "San José",
        "text": "San José",
        "country": "CO",
        "coord": {
            "lon": -78.24482,
            "lat": 1.69659
        }
    },
    {
        "id": 3669718,
        "value": 3669718,
        "name": "San Jerónimo",
        "label": "San Jerónimo",
        "text": "San Jerónimo",
        "country": "CO",
        "coord": {
            "lon": -75.728149,
            "lat": 6.44344
        }
    },
    {
        "id": 3669736,
        "value": 3669736,
        "name": "San Jacinto",
        "label": "San Jacinto",
        "text": "San Jacinto",
        "country": "CO",
        "coord": {
            "lon": -75.121696,
            "lat": 9.82767
        }
    },
    {
        "id": 3669793,
        "value": 3669793,
        "name": "San Ignacio",
        "label": "San Ignacio",
        "text": "San Ignacio",
        "country": "CO",
        "coord": {
            "lon": -75.383331,
            "lat": 5.55
        }
    },
    {
        "id": 3669799,
        "value": 3669799,
        "name": "San Hilario",
        "label": "San Hilario",
        "text": "San Hilario",
        "country": "CO",
        "coord": {
            "lon": -74.087692,
            "lat": 4.74679
        }
    },
    {
        "id": 3669808,
        "value": 3669808,
        "name": "San Gil",
        "label": "San Gil",
        "text": "San Gil",
        "country": "CO",
        "coord": {
            "lon": -73.133087,
            "lat": 6.55573
        }
    },
    {
        "id": 3669857,
        "value": 3669857,
        "name": "San Francisco",
        "label": "San Francisco",
        "text": "San Francisco",
        "country": "CO",
        "coord": {
            "lon": -75.98333,
            "lat": 6.11667
        }
    },
    {
        "id": 3669859,
        "value": 3669859,
        "name": "San Francisco",
        "label": "San Francisco",
        "text": "San Francisco",
        "country": "CO",
        "coord": {
            "lon": -73.210602,
            "lat": 5.56453
        }
    },
    {
        "id": 3669860,
        "value": 3669860,
        "name": "San Francisco",
        "label": "San Francisco",
        "text": "San Francisco",
        "country": "CO",
        "coord": {
            "lon": -74.290062,
            "lat": 4.97372
        }
    },
    {
        "id": 3669881,
        "value": 3669881,
        "name": "San Francisco",
        "label": "San Francisco",
        "text": "San Francisco",
        "country": "CO",
        "coord": {
            "lon": -76.878502,
            "lat": 1.17867
        }
    },
    {
        "id": 3669895,
        "value": 3669895,
        "name": "San Fernando",
        "label": "San Fernando",
        "text": "San Fernando",
        "country": "CO",
        "coord": {
            "lon": -74.53389,
            "lat": 9.27972
        }
    },
    {
        "id": 3669929,
        "value": 3669929,
        "name": "San Estanislao",
        "label": "San Estanislao",
        "text": "San Estanislao",
        "country": "CO",
        "coord": {
            "lon": -75.151108,
            "lat": 10.39833
        }
    },
    {
        "id": 3669938,
        "value": 3669938,
        "name": "Sandoná",
        "label": "Sandoná",
        "text": "Sandoná",
        "country": "CO",
        "coord": {
            "lon": -77.474091,
            "lat": 1.29151
        }
    },
    {
        "id": 3669947,
        "value": 3669947,
        "name": "San Diego",
        "label": "San Diego",
        "text": "San Diego",
        "country": "CO",
        "coord": {
            "lon": -73.180038,
            "lat": 10.33427
        }
    },
    {
        "id": 3669956,
        "value": 3669956,
        "name": "San Cristóbal",
        "label": "San Cristóbal",
        "text": "San Cristóbal",
        "country": "CO",
        "coord": {
            "lon": -75.25248,
            "lat": 9.87809
        }
    },
    {
        "id": 3669977,
        "value": 3669977,
        "name": "San Cayetano",
        "label": "San Cayetano",
        "text": "San Cayetano",
        "country": "CO",
        "coord": {
            "lon": -72.624298,
            "lat": 7.87707
        }
    },
    {
        "id": 3669981,
        "value": 3669981,
        "name": "San Cayetano",
        "label": "San Cayetano",
        "text": "San Cayetano",
        "country": "CO",
        "coord": {
            "lon": -74.069542,
            "lat": 5.30153
        }
    },
    {
        "id": 3669987,
        "value": 3669987,
        "name": "San Carlos de Guaroa",
        "label": "San Carlos de Guaroa",
        "text": "San Carlos de Guaroa",
        "country": "CO",
        "coord": {
            "lon": -73.243439,
            "lat": 3.71161
        }
    },
    {
        "id": 3669997,
        "value": 3669997,
        "name": "San Carlos",
        "label": "San Carlos",
        "text": "San Carlos",
        "country": "CO",
        "coord": {
            "lon": -75.699471,
            "lat": 8.79577
        }
    },
    {
        "id": 3669998,
        "value": 3669998,
        "name": "San Carlos",
        "label": "San Carlos",
        "text": "San Carlos",
        "country": "CO",
        "coord": {
            "lon": -74.773163,
            "lat": 7.79177
        }
    },
    {
        "id": 3670000,
        "value": 3670000,
        "name": "San Carlos",
        "label": "San Carlos",
        "text": "San Carlos",
        "country": "CO",
        "coord": {
            "lon": -74.993149,
            "lat": 6.18789
        }
    },
    {
        "id": 3670011,
        "value": 3670011,
        "name": "San Calixto",
        "label": "San Calixto",
        "text": "San Calixto",
        "country": "CO",
        "coord": {
            "lon": -73.207367,
            "lat": 8.4021
        }
    },
    {
        "id": 3670018,
        "value": 3670018,
        "name": "San Bernardo del Viento",
        "label": "San Bernardo del Viento",
        "text": "San Bernardo del Viento",
        "country": "CO",
        "coord": {
            "lon": -75.952438,
            "lat": 9.3533
        }
    },
    {
        "id": 3670034,
        "value": 3670034,
        "name": "San Bernardo",
        "label": "San Bernardo",
        "text": "San Bernardo",
        "country": "CO",
        "coord": {
            "lon": -77.030907,
            "lat": 1.52119
        }
    },
    {
        "id": 3670038,
        "value": 3670038,
        "name": "San Benito Abad",
        "label": "San Benito Abad",
        "text": "San Benito Abad",
        "country": "CO",
        "coord": {
            "lon": -75.027092,
            "lat": 8.92901
        }
    },
    {
        "id": 3670061,
        "value": 3670061,
        "name": "San Antonio del Prado",
        "label": "San Antonio del Prado",
        "text": "San Antonio del Prado",
        "country": "CO",
        "coord": {
            "lon": -75.657318,
            "lat": 6.18394
        }
    },
    {
        "id": 3670107,
        "value": 3670107,
        "name": "San Antonio",
        "label": "San Antonio",
        "text": "San Antonio",
        "country": "CO",
        "coord": {
            "lon": -74.693459,
            "lat": 9.93303
        }
    },
    {
        "id": 3670141,
        "value": 3670141,
        "name": "San Antonio",
        "label": "San Antonio",
        "text": "San Antonio",
        "country": "CO",
        "coord": {
            "lon": -73.599998,
            "lat": 5.21667
        }
    },
    {
        "id": 3670162,
        "value": 3670162,
        "name": "San Antonio",
        "label": "San Antonio",
        "text": "San Antonio",
        "country": "CO",
        "coord": {
            "lon": -75.48008,
            "lat": 3.91423
        }
    },
    {
        "id": 3670199,
        "value": 3670199,
        "name": "San Antero",
        "label": "San Antero",
        "text": "San Antero",
        "country": "CO",
        "coord": {
            "lon": -75.758911,
            "lat": 9.3741
        }
    },
    {
        "id": 3670205,
        "value": 3670205,
        "name": "Providencia y Santa Catalina, Departamento de Archipiélago de San Andrés",
        "label": "Providencia y Santa Catalina, Departamento de Archipiélago de San Andrés",
        "text": "Providencia y Santa Catalina, Departamento de Archipiélago de San Andrés",
        "country": "CO",
        "coord": {
            "lon": -81.75,
            "lat": 12.5
        }
    },
    {
        "id": 3670207,
        "value": 3670207,
        "name": "San Andrés de Sotavento",
        "label": "San Andrés de Sotavento",
        "text": "San Andrés de Sotavento",
        "country": "CO",
        "coord": {
            "lon": -75.508774,
            "lat": 9.14476
        }
    },
    {
        "id": 3670218,
        "value": 3670218,
        "name": "San Andrés",
        "label": "San Andrés",
        "text": "San Andrés",
        "country": "CO",
        "coord": {
            "lon": -81.700562,
            "lat": 12.58472
        }
    },
    {
        "id": 3670224,
        "value": 3670224,
        "name": "San Andrés",
        "label": "San Andrés",
        "text": "San Andrés",
        "country": "CO",
        "coord": {
            "lon": -72.849289,
            "lat": 6.81148
        }
    },
    {
        "id": 3670235,
        "value": 3670235,
        "name": "San Alonso",
        "label": "San Alonso",
        "text": "San Alonso",
        "country": "CO",
        "coord": {
            "lon": -73.122223,
            "lat": 7.13306
        }
    },
    {
        "id": 3670242,
        "value": 3670242,
        "name": "San Alberto",
        "label": "San Alberto",
        "text": "San Alberto",
        "country": "CO",
        "coord": {
            "lon": -73.392197,
            "lat": 7.76107
        }
    },
    {
        "id": 3670260,
        "value": 3670260,
        "name": "San Agustín",
        "label": "San Agustín",
        "text": "San Agustín",
        "country": "CO",
        "coord": {
            "lon": -76.275574,
            "lat": 1.87863
        }
    },
    {
        "id": 3670280,
        "value": 3670280,
        "name": "Sampués",
        "label": "Sampués",
        "text": "Sampués",
        "country": "CO",
        "coord": {
            "lon": -75.381668,
            "lat": 9.18361
        }
    },
    {
        "id": 3670293,
        "value": 3670293,
        "name": "Samaniego",
        "label": "Samaniego",
        "text": "Samaniego",
        "country": "CO",
        "coord": {
            "lon": -77.595703,
            "lat": 1.3385
        }
    },
    {
        "id": 3670303,
        "value": 3670303,
        "name": "Samacá",
        "label": "Samacá",
        "text": "Samacá",
        "country": "CO",
        "coord": {
            "lon": -73.485367,
            "lat": 5.49274
        }
    },
    {
        "id": 3670350,
        "value": 3670350,
        "name": "Salgar",
        "label": "Salgar",
        "text": "Salgar",
        "country": "CO",
        "coord": {
            "lon": -75.965408,
            "lat": 5.96502
        }
    },
    {
        "id": 3670352,
        "value": 3670352,
        "name": "Salento",
        "label": "Salento",
        "text": "Salento",
        "country": "CO",
        "coord": {
            "lon": -75.570282,
            "lat": 4.6375
        }
    },
    {
        "id": 3670357,
        "value": 3670357,
        "name": "Saldaña",
        "label": "Saldaña",
        "text": "Saldaña",
        "country": "CO",
        "coord": {
            "lon": -75.015167,
            "lat": 3.92922
        }
    },
    {
        "id": 3670368,
        "value": 3670368,
        "name": "Salamina",
        "label": "Salamina",
        "text": "Salamina",
        "country": "CO",
        "coord": {
            "lon": -74.794632,
            "lat": 10.49027
        }
    },
    {
        "id": 3670370,
        "value": 3670370,
        "name": "Salamina",
        "label": "Salamina",
        "text": "Salamina",
        "country": "CO",
        "coord": {
            "lon": -75.487488,
            "lat": 5.40733
        }
    },
    {
        "id": 3670383,
        "value": 3670383,
        "name": "Saladoblanco",
        "label": "Saladoblanco",
        "text": "Saladoblanco",
        "country": "CO",
        "coord": {
            "lon": -76.04335,
            "lat": 1.99244
        }
    },
    {
        "id": 3670419,
        "value": 3670419,
        "name": "Sahagún",
        "label": "Sahagún",
        "text": "Sahagún",
        "country": "CO",
        "coord": {
            "lon": -75.442749,
            "lat": 8.94616
        }
    },
    {
        "id": 3670431,
        "value": 3670431,
        "name": "Sáchica",
        "label": "Sáchica",
        "text": "Sáchica",
        "country": "CO",
        "coord": {
            "lon": -73.54184,
            "lat": 5.58453
        }
    },
    {
        "id": 3670447,
        "value": 3670447,
        "name": "Saboyá",
        "label": "Saboyá",
        "text": "Saboyá",
        "country": "CO",
        "coord": {
            "lon": -73.769318,
            "lat": 5.69636
        }
    },
    {
        "id": 3670475,
        "value": 3670475,
        "name": "Sabaneta",
        "label": "Sabaneta",
        "text": "Sabaneta",
        "country": "CO",
        "coord": {
            "lon": -75.599998,
            "lat": 6.15
        }
    },
    {
        "id": 3670478,
        "value": 3670478,
        "name": "Sabaneta",
        "label": "Sabaneta",
        "text": "Sabaneta",
        "country": "CO",
        "coord": {
            "lon": -74.366669,
            "lat": 4.35
        }
    },
    {
        "id": 3670502,
        "value": 3670502,
        "name": "Sabanalarga",
        "label": "Sabanalarga",
        "text": "Sabanalarga",
        "country": "CO",
        "coord": {
            "lon": -74.920631,
            "lat": 10.62962
        }
    },
    {
        "id": 3670506,
        "value": 3670506,
        "name": "Sabanalarga",
        "label": "Sabanalarga",
        "text": "Sabanalarga",
        "country": "CO",
        "coord": {
            "lon": -75.817108,
            "lat": 6.84893
        }
    },
    {
        "id": 3670513,
        "value": 3670513,
        "name": "Sabanagrande",
        "label": "Sabanagrande",
        "text": "Sabanagrande",
        "country": "CO",
        "coord": {
            "lon": -74.76059,
            "lat": 10.79115
        }
    },
    {
        "id": 3670514,
        "value": 3670514,
        "name": "Sabanagrande",
        "label": "Sabanagrande",
        "text": "Sabanagrande",
        "country": "CO",
        "coord": {
            "lon": -74.682777,
            "lat": 10.71972
        }
    },
    {
        "id": 3670520,
        "value": 3670520,
        "name": "Sabana de Torres",
        "label": "Sabana de Torres",
        "text": "Sabana de Torres",
        "country": "CO",
        "coord": {
            "lon": -73.495743,
            "lat": 7.3915
        }
    },
    {
        "id": 3670521,
        "value": 3670521,
        "name": "Sabana del Potrero",
        "label": "Sabana del Potrero",
        "text": "Sabana del Potrero",
        "country": "CO",
        "coord": {
            "lon": -72.866783,
            "lat": 11.15699
        }
    },
    {
        "id": 3670587,
        "value": 3670587,
        "name": "Rovira",
        "label": "Rovira",
        "text": "Rovira",
        "country": "CO",
        "coord": {
            "lon": -75.23996,
            "lat": 4.23922
        }
    },
    {
        "id": 3670595,
        "value": 3670595,
        "name": "Rosas",
        "label": "Rosas",
        "text": "Rosas",
        "country": "CO",
        "coord": {
            "lon": -76.739861,
            "lat": 2.26093
        }
    },
    {
        "id": 3670629,
        "value": 3670629,
        "name": "Roncesvalles",
        "label": "Roncesvalles",
        "text": "Roncesvalles",
        "country": "CO",
        "coord": {
            "lon": -75.604927,
            "lat": 4.0108
        }
    },
    {
        "id": 3670644,
        "value": 3670644,
        "name": "Roldanillo",
        "label": "Roldanillo",
        "text": "Roldanillo",
        "country": "CO",
        "coord": {
            "lon": -76.154572,
            "lat": 4.41256
        }
    },
    {
        "id": 3670692,
        "value": 3670692,
        "name": "Rivera",
        "label": "Rivera",
        "text": "Rivera",
        "country": "CO",
        "coord": {
            "lon": -75.256416,
            "lat": 2.77717
        }
    },
    {
        "id": 3670698,
        "value": 3670698,
        "name": "Departamento de Risaralda",
        "label": "Departamento de Risaralda",
        "text": "Departamento de Risaralda",
        "country": "CO",
        "coord": {
            "lon": -76.0,
            "lat": 5.0
        }
    },
    {
        "id": 3670700,
        "value": 3670700,
        "name": "Risaralda",
        "label": "Risaralda",
        "text": "Risaralda",
        "country": "CO",
        "coord": {
            "lon": -75.765953,
            "lat": 5.16647
        }
    },
    {
        "id": 3670709,
        "value": 3670709,
        "name": "Río Viejo",
        "label": "Río Viejo",
        "text": "Río Viejo",
        "country": "CO",
        "coord": {
            "lon": -73.839012,
            "lat": 8.5874
        }
    },
    {
        "id": 3670718,
        "value": 3670718,
        "name": "Riosucio",
        "label": "Riosucio",
        "text": "Riosucio",
        "country": "CO",
        "coord": {
            "lon": -77.116699,
            "lat": 7.44027
        }
    },
    {
        "id": 3670719,
        "value": 3670719,
        "name": "Riosucio",
        "label": "Riosucio",
        "text": "Riosucio",
        "country": "CO",
        "coord": {
            "lon": -75.703178,
            "lat": 5.42164
        }
    },
    {
        "id": 3670730,
        "value": 3670730,
        "name": "Rionegro",
        "label": "Rionegro",
        "text": "Rionegro",
        "country": "CO",
        "coord": {
            "lon": -75.373711,
            "lat": 6.15515
        }
    },
    {
        "id": 3670745,
        "value": 3670745,
        "name": "Riohacha",
        "label": "Riohacha",
        "text": "Riohacha",
        "country": "CO",
        "coord": {
            "lon": -72.907219,
            "lat": 11.54444
        }
    },
    {
        "id": 3670754,
        "value": 3670754,
        "name": "Riofrío",
        "label": "Riofrío",
        "text": "Riofrío",
        "country": "CO",
        "coord": {
            "lon": -76.288521,
            "lat": 4.1571
        }
    },
    {
        "id": 3670756,
        "value": 3670756,
        "name": "Río de Oro",
        "label": "Río de Oro",
        "text": "Río de Oro",
        "country": "CO",
        "coord": {
            "lon": -73.38485,
            "lat": 8.2919
        }
    },
    {
        "id": 3670764,
        "value": 3670764,
        "name": "Rioblanco",
        "label": "Rioblanco",
        "text": "Rioblanco",
        "country": "CO",
        "coord": {
            "lon": -75.680557,
            "lat": 3.53083
        }
    },
    {
        "id": 3670812,
        "value": 3670812,
        "name": "Ricaurte",
        "label": "Ricaurte",
        "text": "Ricaurte",
        "country": "CO",
        "coord": {
            "lon": -74.764687,
            "lat": 4.28075
        }
    },
    {
        "id": 3670816,
        "value": 3670816,
        "name": "Ricaurte",
        "label": "Ricaurte",
        "text": "Ricaurte",
        "country": "CO",
        "coord": {
            "lon": -77.937202,
            "lat": 1.1727
        }
    },
    {
        "id": 3670849,
        "value": 3670849,
        "name": "Retiro",
        "label": "Retiro",
        "text": "Retiro",
        "country": "CO",
        "coord": {
            "lon": -75.503059,
            "lat": 6.05861
        }
    },
    {
        "id": 3670855,
        "value": 3670855,
        "name": "Restrepo",
        "label": "Restrepo",
        "text": "Restrepo",
        "country": "CO",
        "coord": {
            "lon": -73.561417,
            "lat": 4.25833
        }
    },
    {
        "id": 3670856,
        "value": 3670856,
        "name": "Restrepo",
        "label": "Restrepo",
        "text": "Restrepo",
        "country": "CO",
        "coord": {
            "lon": -76.522423,
            "lat": 3.82203
        }
    },
    {
        "id": 3670874,
        "value": 3670874,
        "name": "Repelón",
        "label": "Repelón",
        "text": "Repelón",
        "country": "CO",
        "coord": {
            "lon": -75.129173,
            "lat": 10.49194
        }
    },
    {
        "id": 3670884,
        "value": 3670884,
        "name": "Remolino",
        "label": "Remolino",
        "text": "Remolino",
        "country": "CO",
        "coord": {
            "lon": -74.716019,
            "lat": 10.70198
        }
    },
    {
        "id": 3670899,
        "value": 3670899,
        "name": "Remedios",
        "label": "Remedios",
        "text": "Remedios",
        "country": "CO",
        "coord": {
            "lon": -74.533333,
            "lat": 7.03083
        }
    },
    {
        "id": 3670910,
        "value": 3670910,
        "name": "Regidor",
        "label": "Regidor",
        "text": "Regidor",
        "country": "CO",
        "coord": {
            "lon": -73.82151,
            "lat": 8.66565
        }
    },
    {
        "id": 3670929,
        "value": 3670929,
        "name": "Recreo",
        "label": "Recreo",
        "text": "Recreo",
        "country": "CO",
        "coord": {
            "lon": -77.533333,
            "lat": 1.4
        }
    },
    {
        "id": 3670966,
        "value": 3670966,
        "name": "Ráquira",
        "label": "Ráquira",
        "text": "Ráquira",
        "country": "CO",
        "coord": {
            "lon": -73.632011,
            "lat": 5.53793
        }
    },
    {
        "id": 3671002,
        "value": 3671002,
        "name": "Ramiriquí",
        "label": "Ramiriquí",
        "text": "Ramiriquí",
        "country": "CO",
        "coord": {
            "lon": -73.335442,
            "lat": 5.4002
        }
    },
    {
        "id": 3671018,
        "value": 3671018,
        "name": "Ragonvalia",
        "label": "Ragonvalia",
        "text": "Ragonvalia",
        "country": "CO",
        "coord": {
            "lon": -72.475739,
            "lat": 7.57749
        }
    },
    {
        "id": 3671020,
        "value": 3671020,
        "name": "Apulo",
        "label": "Apulo",
        "text": "Apulo",
        "country": "CO",
        "coord": {
            "lon": -74.592934,
            "lat": 4.51952
        }
    },
    {
        "id": 3671072,
        "value": 3671072,
        "name": "Quipile",
        "label": "Quipile",
        "text": "Quipile",
        "country": "CO",
        "coord": {
            "lon": -74.563057,
            "lat": 4.74806
        }
    },
    {
        "id": 3671087,
        "value": 3671087,
        "name": "Quindío Department",
        "label": "Quindío Department",
        "text": "Quindío Department",
        "country": "CO",
        "coord": {
            "lon": -75.666672,
            "lat": 4.5
        }
    },
    {
        "id": 3671091,
        "value": 3671091,
        "name": "Quinchía",
        "label": "Quinchía",
        "text": "Quinchía",
        "country": "CO",
        "coord": {
            "lon": -75.730179,
            "lat": 5.33957
        }
    },
    {
        "id": 3671098,
        "value": 3671098,
        "name": "Quimbaya",
        "label": "Quimbaya",
        "text": "Quimbaya",
        "country": "CO",
        "coord": {
            "lon": -75.762779,
            "lat": 4.62306
        }
    },
    {
        "id": 3671116,
        "value": 3671116,
        "name": "Quibdó",
        "label": "Quibdó",
        "text": "Quibdó",
        "country": "CO",
        "coord": {
            "lon": -76.66111,
            "lat": 5.69472
        }
    },
    {
        "id": 3671119,
        "value": 3671119,
        "name": "Quetame",
        "label": "Quetame",
        "text": "Quetame",
        "country": "CO",
        "coord": {
            "lon": -73.86142,
            "lat": 4.33234
        }
    },
    {
        "id": 3671161,
        "value": 3671161,
        "name": "Quebradanegra",
        "label": "Quebradanegra",
        "text": "Quebradanegra",
        "country": "CO",
        "coord": {
            "lon": -74.479439,
            "lat": 5.11737
        }
    },
    {
        "id": 3671178,
        "value": 3671178,
        "name": "Departamento del Putumayo",
        "label": "Departamento del Putumayo",
        "text": "Departamento del Putumayo",
        "country": "CO",
        "coord": {
            "lon": -76.0,
            "lat": 0.5
        }
    },
    {
        "id": 3811890,
        "value": 3811890,
        "name": "Caja",
        "label": "Caja",
        "text": "Caja",
        "country": "CO",
        "coord": {
            "lon": -75.019173,
            "lat": 10.88722
        }
    },
        {
        "id": 3671203,
        "value": 3671203,
        "name": "Purísima de la Concepción",
        "label": "Purísima de la Concepción",
        "text": "Purísima de la Concepción",
        "country": "CO",
        "coord": {
            "lon": -75.721901,
            "lat": 9.23657
        }
    },
    {
        "id": 3671208,
        "value": 3671208,
        "name": "Purificación",
        "label": "Purificación",
        "text": "Purificación",
        "country": "CO",
        "coord": {
            "lon": -74.93129,
            "lat": 3.8587
        }
    },
    {
        "id": 3671216,
        "value": 3671216,
        "name": "Pureto",
        "label": "Pureto",
        "text": "Pureto",
        "country": "CO",
        "coord": {
            "lon": -76.333328,
            "lat": 5.33333
        }
    },
    {
        "id": 3671228,
        "value": 3671228,
        "name": "Pupiales",
        "label": "Pupiales",
        "text": "Pupiales",
        "country": "CO",
        "coord": {
            "lon": -77.640266,
            "lat": 0.87136
        }
    },
    {
        "id": 3671287,
        "value": 3671287,
        "name": "Puerto Wilches",
        "label": "Puerto Wilches",
        "text": "Puerto Wilches",
        "country": "CO",
        "coord": {
            "lon": -73.896011,
            "lat": 7.34828
        }
    },
    {
        "id": 3671308,
        "value": 3671308,
        "name": "Puerto Triunfo",
        "label": "Puerto Triunfo",
        "text": "Puerto Triunfo",
        "country": "CO",
        "coord": {
            "lon": -74.640289,
            "lat": 5.87262
        }
    },
    {
        "id": 3671315,
        "value": 3671315,
        "name": "Puerto Tejada",
        "label": "Puerto Tejada",
        "text": "Puerto Tejada",
        "country": "CO",
        "coord": {
            "lon": -76.416679,
            "lat": 3.23114
        }
    },
    {
        "id": 3671325,
        "value": 3671325,
        "name": "Puerto Santander",
        "label": "Puerto Santander",
        "text": "Puerto Santander",
        "country": "CO",
        "coord": {
            "lon": -72.406303,
            "lat": 8.36361
        }
    },
    {
        "id": 3671330,
        "value": 3671330,
        "name": "Puerto Salgar",
        "label": "Puerto Salgar",
        "text": "Puerto Salgar",
        "country": "CO",
        "coord": {
            "lon": -74.654358,
            "lat": 5.46304
        }
    },
    {
        "id": 3671337,
        "value": 3671337,
        "name": "Puerto Rondón",
        "label": "Puerto Rondón",
        "text": "Puerto Rondón",
        "country": "CO",
        "coord": {
            "lon": -71.099998,
            "lat": 6.28048
        }
    },
    {
        "id": 3671346,
        "value": 3671346,
        "name": "Puerto Yuca",
        "label": "Puerto Yuca",
        "text": "Puerto Yuca",
        "country": "CO",
        "coord": {
            "lon": -73.208328,
            "lat": 2.93833
        }
    },
    {
        "id": 3671348,
        "value": 3671348,
        "name": "Puerto Rico",
        "label": "Puerto Rico",
        "text": "Puerto Rico",
        "country": "CO",
        "coord": {
            "lon": -75.144997,
            "lat": 1.91417
        }
    },
    {
        "id": 3671371,
        "value": 3671371,
        "name": "Puerto Parra",
        "label": "Puerto Parra",
        "text": "Puerto Parra",
        "country": "CO",
        "coord": {
            "lon": -74.057343,
            "lat": 6.65149
        }
    },
    {
        "id": 3671381,
        "value": 3671381,
        "name": "Puerto Niño",
        "label": "Puerto Niño",
        "text": "Puerto Niño",
        "country": "CO",
        "coord": {
            "lon": -74.900002,
            "lat": 10.25
        }
    },
    {
        "id": 3671387,
        "value": 3671387,
        "name": "Puerto Nariño",
        "label": "Puerto Nariño",
        "text": "Puerto Nariño",
        "country": "CO",
        "coord": {
            "lon": -70.383057,
            "lat": -3.77028
        }
    },
    {
        "id": 3671418,
        "value": 3671418,
        "name": "Puerto López",
        "label": "Puerto López",
        "text": "Puerto López",
        "country": "CO",
        "coord": {
            "lon": -72.955971,
            "lat": 4.08451
        }
    },
    {
        "id": 3671424,
        "value": 3671424,
        "name": "Puerto Lleras",
        "label": "Puerto Lleras",
        "text": "Puerto Lleras",
        "country": "CO",
        "coord": {
            "lon": -73.404404,
            "lat": 3.02225
        }
    },
    {
        "id": 3671437,
        "value": 3671437,
        "name": "Puerto Leguízamo",
        "label": "Puerto Leguízamo",
        "text": "Puerto Leguízamo",
        "country": "CO",
        "coord": {
            "lon": -74.781891,
            "lat": -0.19337
        }
    },
    {
        "id": 3671450,
        "value": 3671450,
        "name": "Inírida",
        "label": "Inírida",
        "text": "Inírida",
        "country": "CO",
        "coord": {
            "lon": -67.923889,
            "lat": 3.86528
        }
    },
    {
        "id": 3671470,
        "value": 3671470,
        "name": "Puerto Escondido",
        "label": "Puerto Escondido",
        "text": "Puerto Escondido",
        "country": "CO",
        "coord": {
            "lon": -76.26413,
            "lat": 9.0181
        }
    },
    {
        "id": 3671497,
        "value": 3671497,
        "name": "Puerto Colombia",
        "label": "Puerto Colombia",
        "text": "Puerto Colombia",
        "country": "CO",
        "coord": {
            "lon": -74.95472,
            "lat": 10.98778
        }
    },
    {
        "id": 3671519,
        "value": 3671519,
        "name": "Puerto Carreño",
        "label": "Puerto Carreño",
        "text": "Puerto Carreño",
        "country": "CO",
        "coord": {
            "lon": -67.485878,
            "lat": 6.18903
        }
    },
    {
        "id": 3671531,
        "value": 3671531,
        "name": "Puerto Boyacá",
        "label": "Puerto Boyacá",
        "text": "Puerto Boyacá",
        "country": "CO",
        "coord": {
            "lon": -74.588463,
            "lat": 5.97584
        }
    },
    {
        "id": 3671540,
        "value": 3671540,
        "name": "Puerto Berrío",
        "label": "Puerto Berrío",
        "text": "Puerto Berrío",
        "country": "CO",
        "coord": {
            "lon": -74.403259,
            "lat": 6.49156
        }
    },
    {
        "id": 3671549,
        "value": 3671549,
        "name": "Puerto Asís",
        "label": "Puerto Asís",
        "text": "Puerto Asís",
        "country": "CO",
        "coord": {
            "lon": -76.500748,
            "lat": 0.51328
        }
    },
    {
        "id": 3671576,
        "value": 3671576,
        "name": "Puerres",
        "label": "Puerres",
        "text": "Puerres",
        "country": "CO",
        "coord": {
            "lon": -77.266609,
            "lat": 1.19374
        }
    },